[
  {
    "provinceCode": "EP",
    "provinceName": "Eastern Province",
    "districtCode": "AMP",
    "districtName": "Ampara",
    "stationCode": "AMPP",
    "stationName": "Ampara Police Station",
    "address": "Ampara",
    "contactNumber": "+94632234501",
    "isActive": true,
    "latitude": 7.2915,
    "longitude": 81.6724
  },
  {
    "provinceCode": "NCP",
    "provinceName": "North Central Province",
    "districtCode": "ANU",
    "districtName": "Anuradhapura",
    "stationCode": "ANUP",
    "stationName": "Anuradhapura Police Station",
    "address": "Anuradhapura",
    "contactNumber": "+94252234501",
    "isActive": true,
    "latitude": 8.3114,
    "longitude": 80.4037
  },
  {
    "provinceCode": "UVA",
    "provinceName": "Uva Province",
    "districtCode": "BAD",
    "districtName": "Badulla",
    "stationCode": "BADP",
    "stationName": "Badulla Police Station",
    "address": "Badulla",
    "contactNumber": "+94552234501",
    "isActive": true,
    "latitude": 6.9934,
    "longitude": 81.055
  },
  {
    "provinceCode": "EP",
    "provinceName": "Eastern Province",
    "districtCode": "BAT",
    "districtName": "Batticaloa",
    "stationCode": "BATP",
    "stationName": "Batticaloa Police Station",
    "address": "Batticaloa",
    "contactNumber": "+94652234501",
    "isActive": true,
    "latitude": 7.7102,
    "longitude": 81.6924
  },
  {
    "provinceCode": "WP",
    "provinceName": "Western Province",
    "districtCode": "COL",
    "districtName": "Colombo",
    "stationCode": "FORT",
    "stationName": "Fort Police Station",
    "address": "Colombo 01",
    "contactNumber": "+94112345601",
    "isActive": true,
    "latitude": 6.9344,
    "longitude": 79.8428
  },
  {
    "provinceCode": "SP",
    "provinceName": "Southern Province",
    "districtCode": "GAL",
    "districtName": "Galle",
    "stationCode": "GALP",
    "stationName": "Galle Police Station",
    "address": "Galle Fort",
    "contactNumber": "+94912234501",
    "isActive": true,
    "latitude": 6.0329,
    "longitude": 80.2168
  },
  {
    "provinceCode": "SP",
    "provinceName": "Southern Province",
    "districtCode": "HAM",
    "districtName": "Hambantota",
    "stationCode": "HAMB",
    "stationName": "Hambantota Police Station",
    "address": "Hambantota",
    "contactNumber": "+94472234501",
    "isActive": true,
    "latitude": 6.1241,
    "longitude": 81.1185
  },
  {
    "provinceCode": "NP",
    "provinceName": "Northern Province",
    "districtCode": "JAF",
    "districtName": "Jaffna",
    "stationCode": "JAFP",
    "stationName": "Jaffna Police Station",
    "address": "Jaffna Town",
    "contactNumber": "+94212234501",
    "isActive": true,
    "latitude": 9.6615,
    "longitude": 80.0255
  },
  {
    "provinceCode": "CP",
    "provinceName": "Central Province",
    "districtCode": "KAN",
    "districtName": "Kandy",
    "stationCode": "KDY",
    "stationName": "Kandy HQ Police Station",
    "address": "Kandy",
    "contactNumber": "+94812234501",
    "isActive": true,
    "latitude": 7.2906,
    "longitude": 80.6337
  },
  {
    "provinceCode": "SAB",
    "provinceName": "Sabaragamuwa Province",
    "districtCode": "KEG",
    "districtName": "Kegalle",
    "stationCode": "KEGP",
    "stationName": "Kegalle Police Station",
    "address": "Kegalle",
    "contactNumber": "+94352234501",
    "isActive": true,
    "latitude": 7.2511,
    "longitude": 80.3464
  },
  {
    "provinceCode": "WP",
    "provinceName": "Western Province",
    "districtCode": "GAM",
    "districtName": "Gampaha",
    "stationCode": "KEL",
    "stationName": "Kelaniya Police Station",
    "address": "Kelaniya",
    "contactNumber": "+94112345604",
    "isActive": true,
    "latitude": 6.9553,
    "longitude": 79.922
  },
  {
    "provinceCode": "NWP",
    "provinceName": "North Western Province",
    "districtCode": "KUR",
    "districtName": "Kurunegala",
    "stationCode": "KURP",
    "stationName": "Kurunegala Police Station",
    "address": "Kurunegala",
    "contactNumber": "+94372234501",
    "isActive": true,
    "latitude": 7.4863,
    "longitude": 80.3647
  },
  {
    "provinceCode": "SP",
    "provinceName": "Southern Province",
    "districtCode": "MATR",
    "districtName": "Matara",
    "stationCode": "MATP",
    "stationName": "Matara Police Station",
    "address": "Matara",
    "contactNumber": "+94412234501",
    "isActive": true,
    "latitude": 5.9549,
    "longitude": 80.555
  },
  {
    "provinceCode": "WP",
    "provinceName": "Western Province",
    "districtCode": "COL",
    "districtName": "Colombo",
    "stationCode": "MNTL",
    "stationName": "Mount Lavinia Police Station",
    "address": "Mount Lavinia",
    "contactNumber": "+94112345603",
    "isActive": true,
    "latitude": 6.8389,
    "longitude": 79.863
  },
  {
    "provinceCode": "UVA",
    "provinceName": "Uva Province",
    "districtCode": "MON",
    "districtName": "Monaragala",
    "stationCode": "MONP",
    "stationName": "Monaragala Police Station",
    "address": "Monaragala",
    "contactNumber": "+94552234502",
    "isActive": true,
    "latitude": 6.8728,
    "longitude": 81.3507
  },
  {
    "provinceCode": "WP",
    "provinceName": "Western Province",
    "districtCode": "GAM",
    "districtName": "Gampaha",
    "stationCode": "NEG",
    "stationName": "Negombo Police Station",
    "address": "Negombo",
    "contactNumber": "+94312234501",
    "isActive": true,
    "latitude": 7.2083,
    "longitude": 79.8358
  },
  {
    "provinceCode": "CP",
    "provinceName": "Central Province",
    "districtCode": "NUW",
    "districtName": "Nuwara Eliya",
    "stationCode": "NUWPS",
    "stationName": "Nuwara Eliya Police Station",
    "address": "Nuwara Eliya",
    "contactNumber": "+94522234501",
    "isActive": true,
    "latitude": 6.9497,
    "longitude": 80.7891
  },
  {
    "provinceCode": "WP",
    "provinceName": "Western Province",
    "districtCode": "KAL",
    "districtName": "Kalutara",
    "stationCode": "PAN",
    "stationName": "Panadura Police Station",
    "address": "Panadura",
    "contactNumber": "+94382234501",
    "isActive": true,
    "latitude": 6.7132,
    "longitude": 79.9066
  },
  {
    "provinceCode": "CP",
    "provinceName": "Central Province",
    "districtCode": "KAN",
    "districtName": "Kandy",
    "stationCode": "PER",
    "stationName": "Peradeniya Police Station",
    "address": "Peradeniya",
    "contactNumber": "+94812234502",
    "isActive": true,
    "latitude": 7.2664,
    "longitude": 80.594
  },
  {
    "provinceCode": "WP",
    "provinceName": "Western Province",
    "districtCode": "COL",
    "districtName": "Colombo",
    "stationCode": "PET",
    "stationName": "Pettah Police Station",
    "address": "Pettah, Colombo",
    "contactNumber": "+94112345602",
    "isActive": true,
    "latitude": 6.9391,
    "longitude": 79.8506
  },
  {
    "provinceCode": "NCP",
    "provinceName": "North Central Province",
    "districtCode": "POL",
    "districtName": "Polonnaruwa",
    "stationCode": "POLP",
    "stationName": "Polonnaruwa Police Station",
    "address": "Polonnaruwa",
    "contactNumber": "+94272234501",
    "isActive": true,
    "latitude": 7.9403,
    "longitude": 81.0188
  },
  {
    "provinceCode": "NWP",
    "provinceName": "North Western Province",
    "districtCode": "PUT",
    "districtName": "Puttalam",
    "stationCode": "PUTP",
    "stationName": "Puttalam Police Station",
    "address": "Puttalam",
    "contactNumber": "+94322234501",
    "isActive": true,
    "latitude": 8.0362,
    "longitude": 79.8283
  },
  {
    "provinceCode": "SAB",
    "provinceName": "Sabaragamuwa Province",
    "districtCode": "RAT",
    "districtName": "Ratnapura",
    "stationCode": "RATP",
    "stationName": "Ratnapura Police Station",
    "address": "Ratnapura",
    "contactNumber": "+94452234501",
    "isActive": true,
    "latitude": 6.6828,
    "longitude": 80.3992
  },
  {
    "provinceCode": "EP",
    "provinceName": "Eastern Province",
    "districtCode": "TRI",
    "districtName": "Trincomalee",
    "stationCode": "TRIP",
    "stationName": "Trincomalee Police Station",
    "address": "Trincomalee",
    "contactNumber": "+94262234501",
    "isActive": true,
    "latitude": 8.5874,
    "longitude": 81.2152
  }
]
